{"type":"FeatureCollection","properties":{"osm_id":-2214022,"ref":"4","colour":"#FFCC00"},"features":[{"type":"Feature","properties":{"name":null,"other_routes":[{"ref":"3","name":"Bus 3: Fontvieille - Centre Commercial → Hector Otto","colour":"DarkGray","osm_id":"-7358689"},{"ref":"3","name":"Bus 3: Hector Otto → Fontvieille - Centre Commercial","colour":"DarkGray","osm_id":"-7358688"},{"ref":"6","name":"Bus 6: Fontvieille - Centre Commercial → Larvotto","colour":"#88BB00","osm_id":"-2218010"},{"ref":"6","name":"Bus 6: Larvotto → Fontvieille - Centre Commercial","colour":"#88BB00","osm_id":"-2218011"}]},"geometry":{"type":"Point","coordinates":[7.41761496049972,43.7306074207685]}},{"type":"Feature","properties":{"name":null,"other_routes":[{"ref":"6","name":"Bus 6: Fontvieille - Centre Commercial → Larvotto","colour":"#88BB00","osm_id":"-2218010"}]},"geometry":{"type":"Point","coordinates":[7.41793464628677,43.728641193922]}},{"type":"Feature","properties":{"name":null,"other_routes":[{"ref":"6","name":"Bus 6: Fontvieille - Centre Commercial → Larvotto","colour":"#88BB00","osm_id":"-2218010"}]},"geometry":{"type":"Point","coordinates":[7.41868558099207,43.727473846267]}},{"type":"Feature","properties":{"name":"Héliport","other_routes":[{"ref":"6","name":"Bus 6: Fontvieille - Centre Commercial → Larvotto","colour":"#88BB00","osm_id":"-2218010"}]},"geometry":{"type":"Point","coordinates":[7.41732829941119,43.7264647489439]}},{"type":"Feature","properties":{"name":null,"other_routes":[{"ref":null,"name":null,"colour":null,"osm_id":null}]},"geometry":{"type":"Point","coordinates":[7.41421509293448,43.7270480455858]}},{"type":"Feature","properties":{"name":"Cimetière","other_routes":[{"ref":"3","name":"Bus 3: Fontvieille - Centre Commercial → Hector Otto","colour":"DarkGray","osm_id":"-7358689"}]},"geometry":{"type":"Point","coordinates":[7.41282797177828,43.7289326326954]}},{"type":"Feature","properties":{"name":null,"other_routes":[{"ref":"3","name":"Bus 3: Hector Otto → Fontvieille - Centre Commercial","colour":"DarkGray","osm_id":"-7358688"}]},"geometry":{"type":"Point","coordinates":[7.41869949495134,43.732267540511]}},{"type":"Feature","properties":{"name":"Castelleretto","other_routes":[{"ref":null,"name":null,"colour":null,"osm_id":null}]},"geometry":{"type":"Point","coordinates":[7.41743097772505,43.7355013625743]}},{"type":"Feature","properties":{"name":"Louis Aureglia","other_routes":[{"ref":null,"name":null,"colour":null,"osm_id":null}]},"geometry":{"type":"Point","coordinates":[7.41946886984363,43.7367539541846]}},{"type":"Feature","properties":{"name":null,"other_routes":[{"ref":"2","name":"Bus 2: Jardin Exotique → Monaco Ville (le Rocher)","colour":"DodgerBlue","osm_id":"-2211942"},{"ref":"5","name":"Bus 5: Hôpital → Larvotto","colour":"#AA5500","osm_id":"-2218009"}]},"geometry":{"type":"Point","coordinates":[7.41987849345173,43.738801988406]}},{"type":"Feature","properties":{"name":null,"other_routes":[{"ref":"2","name":"Bus 2: Jardin Exotique → Monaco Ville (le Rocher)","colour":"DodgerBlue","osm_id":"-2211942"},{"ref":"5","name":"Bus 5: Hôpital → Larvotto","colour":"#AA5500","osm_id":"-2218009"}]},"geometry":{"type":"Point","coordinates":[7.42313586866303,43.7396546794159]}},{"type":"Feature","properties":{"name":null,"other_routes":[{"ref":"1","name":"Bus 1: Monaco Ville (le Rocher) → Saint-Roman","colour":"Red","osm_id":"-2207095"},{"ref":"2","name":"Bus 2: Monaco Ville (le Rocher) → Jardin Exotique","colour":"DodgerBlue","osm_id":"-2211941"},{"ref":"5","name":"Bus 5: Hôpital → Larvotto","colour":"#AA5500","osm_id":"-2218009"},{"ref":"5","name":"Bus 5: Larvotto → Hôpital","colour":"#AA5500","osm_id":"-2218008"},{"ref":"6","name":"Bus 6: Fontvieille - Centre Commercial → Larvotto","colour":"#88BB00","osm_id":"-2218010"}]},"geometry":{"type":"Point","coordinates":[7.4259410401981,43.7409470850662]}},{"type":"Feature","properties":{"name":null,"other_routes":[{"ref":"1","name":"Bus 1: Monaco Ville (le Rocher) → Saint-Roman","colour":"Red","osm_id":"-2207095"}]},"geometry":{"type":"Point","coordinates":[7.4280862206773,43.7427144931693]}},{"type":"Feature","properties":{"name":null,"other_routes":[{"ref":"1","name":"Bus 1: Monaco Ville (le Rocher) → Saint-Roman","colour":"Red","osm_id":"-2207095"}]},"geometry":{"type":"Point","coordinates":[7.42946806123447,43.7454314870831]}},{"type":"Feature","properties":{"name":null,"other_routes":[{"ref":"1","name":"Bus 1: Saint-Roman → Monaco Ville (le Rocher)","colour":"Red","osm_id":"-2207100"}]},"geometry":{"type":"Point","coordinates":[7.43136865777908,43.7469271538854]}},{"type":"Feature","properties":{"name":"Carmes","other_routes":[{"ref":"1","name":"Bus 1: Monaco Ville (le Rocher) → Saint-Roman","colour":"Red","osm_id":"-2207095"}]},"geometry":{"type":"Point","coordinates":[7.43404784930945,43.7487132536326]}},{"type":"Feature","properties":{"name":null,"other_routes":[{"ref":null,"name":null,"colour":null,"osm_id":null}]},"geometry":{"type":"Point","coordinates":[7.43703054955375,43.7499015560455]}}]}
