{"type":"FeatureCollection","properties":{"osm_id":-2211942,"ref":"2","colour":"DodgerBlue"},"features":[{"type":"Feature","properties":{"name":null,"other_routes":[{"ref":"2","name":"Bus 2: Monaco Ville (le Rocher) → Jardin Exotique","colour":"DodgerBlue","osm_id":"-2211941"}]},"geometry":{"type":"Point","coordinates":[7.41355627534503,43.7318629460448]}},{"type":"Feature","properties":{"name":null,"other_routes":[{"ref":"3","name":"Bus 3: Hector Otto → Fontvieille - Centre Commercial","colour":"DarkGray","osm_id":"-7358688"}]},"geometry":{"type":"Point","coordinates":[7.4146229563429,43.7339498722969]}},{"type":"Feature","properties":{"name":"Rotondes","other_routes":[{"ref":null,"name":null,"colour":null,"osm_id":null}]},"geometry":{"type":"Point","coordinates":[7.41484583114828,43.7340963879644]}},{"type":"Feature","properties":{"name":"Moneghetti","other_routes":[{"ref":"3","name":"Bus 3: Hector Otto → Fontvieille - Centre Commercial","colour":"DarkGray","osm_id":"-7358688"}]},"geometry":{"type":"Point","coordinates":[7.41637234335425,43.7366477554714]}},{"type":"Feature","properties":{"name":null,"other_routes":[{"ref":"3","name":"Bus 3: Hector Otto → Fontvieille - Centre Commercial","colour":"DarkGray","osm_id":"-7358688"}]},"geometry":{"type":"Point","coordinates":[7.41872858015535,43.7373881289787]}},{"type":"Feature","properties":{"name":null,"other_routes":[{"ref":"4","name":"Bus 4: Fontvieille - Centre Commercial → Saint-Roman","colour":"#FFCC00","osm_id":"-2214022"},{"ref":"5","name":"Bus 5: Hôpital → Larvotto","colour":"#AA5500","osm_id":"-2218009"}]},"geometry":{"type":"Point","coordinates":[7.41987849345173,43.738801988406]}},{"type":"Feature","properties":{"name":null,"other_routes":[{"ref":"4","name":"Bus 4: Fontvieille - Centre Commercial → Saint-Roman","colour":"#FFCC00","osm_id":"-2214022"},{"ref":"5","name":"Bus 5: Hôpital → Larvotto","colour":"#AA5500","osm_id":"-2218009"}]},"geometry":{"type":"Point","coordinates":[7.42313586866303,43.7396546794159]}},{"type":"Feature","properties":{"name":null,"other_routes":[{"ref":"1","name":"Bus 1: Saint-Roman → Monaco Ville (le Rocher)","colour":"Red","osm_id":"-2207100"},{"ref":"6","name":"Bus 6: Larvotto → Fontvieille - Centre Commercial","colour":"#88BB00","osm_id":"-2218011"}]},"geometry":{"type":"Point","coordinates":[7.42517267113419,43.7397724451555]}},{"type":"Feature","properties":{"name":"Square Beaumarchais","other_routes":[{"ref":"1","name":"Bus 1: Saint-Roman → Monaco Ville (le Rocher)","colour":"Red","osm_id":"-2207100"},{"ref":"6","name":"Bus 6: Larvotto → Fontvieille - Centre Commercial","colour":"#88BB00","osm_id":"-2218011"}]},"geometry":{"type":"Point","coordinates":[7.42617414092536,43.7387911757509]}},{"type":"Feature","properties":{"name":null,"other_routes":[{"ref":"6","name":"Bus 6: Larvotto → Fontvieille - Centre Commercial","colour":"#88BB00","osm_id":"-2218011"}]},"geometry":{"type":"Point","coordinates":[7.42451653575375,43.7374124364979]}},{"type":"Feature","properties":{"name":null,"other_routes":[{"ref":"1","name":"Bus 1: Saint-Roman → Monaco Ville (le Rocher)","colour":"Red","osm_id":"-2207100"},{"ref":"3","name":"Bus 3: Fontvieille - Centre Commercial → Hector Otto","colour":"DarkGray","osm_id":"-7358689"},{"ref":"6","name":"Bus 6: Larvotto → Fontvieille - Centre Commercial","colour":"#88BB00","osm_id":"-2218011"}]},"geometry":{"type":"Point","coordinates":[7.42107257937784,43.7367088595455]}},{"type":"Feature","properties":{"name":"Princesse Florestine","other_routes":[{"ref":"1","name":"Bus 1: Saint-Roman → Monaco Ville (le Rocher)","colour":"Red","osm_id":"-2207100"},{"ref":"3","name":"Bus 3: Fontvieille - Centre Commercial → Hector Otto","colour":"DarkGray","osm_id":"-7358689"},{"ref":"6","name":"Bus 6: Larvotto → Fontvieille - Centre Commercial","colour":"#88BB00","osm_id":"-2218011"}]},"geometry":{"type":"Point","coordinates":[7.41979995501899,43.7356215590658]}},{"type":"Feature","properties":{"name":null,"other_routes":[{"ref":"1","name":"Bus 1: Saint-Roman → Monaco Ville (le Rocher)","colour":"Red","osm_id":"-2207100"}]},"geometry":{"type":"Point","coordinates":[7.41967623812815,43.7322801971848]}},{"type":"Feature","properties":{"name":null,"other_routes":[{"ref":"1","name":"Bus 1: Monaco Ville (le Rocher) → Saint-Roman","colour":"Red","osm_id":"-2207095"},{"ref":"1","name":"Bus 1: Saint-Roman → Monaco Ville (le Rocher)","colour":"Red","osm_id":"-2207100"},{"ref":"2","name":"Bus 2: Monaco Ville (le Rocher) → Jardin Exotique","colour":"DodgerBlue","osm_id":"-2211941"}]},"geometry":{"type":"Point","coordinates":[7.42542647516228,43.7315616166257]}}]}
