{"type":"FeatureCollection","properties":{"osm_id":-2218011,"ref":"6","colour":"#88BB00"},"features":[{"type":"Feature","properties":{"name":null,"other_routes":[{"ref":"5","name":"Bus 5: Hôpital → Larvotto","colour":"#AA5500","osm_id":"-2218009"},{"ref":"5","name":"Bus 5: Larvotto → Hôpital","colour":"#AA5500","osm_id":"-2218008"},{"ref":"6","name":"Bus 6: Fontvieille - Centre Commercial → Larvotto","colour":"#88BB00","osm_id":"-2218010"}]},"geometry":{"type":"Point","coordinates":[7.43739071993312,43.749234691829]}},{"type":"Feature","properties":{"name":null,"other_routes":[{"ref":"5","name":"Bus 5: Larvotto → Hôpital","colour":"#AA5500","osm_id":"-2218008"}]},"geometry":{"type":"Point","coordinates":[7.4350637359741,43.7481506602916]}},{"type":"Feature","properties":{"name":"Plages","other_routes":[{"ref":"5","name":"Bus 5: Larvotto → Hôpital","colour":"#AA5500","osm_id":"-2218008"}]},"geometry":{"type":"Point","coordinates":[7.43280749527784,43.7464213898478]}},{"type":"Feature","properties":{"name":"Grimaldi Forum/Villa Sauber","other_routes":[{"ref":"5","name":"Bus 5: Larvotto → Hôpital","colour":"#AA5500","osm_id":"-2218008"}]},"geometry":{"type":"Point","coordinates":[7.43122599778707,43.7442838369005]}},{"type":"Feature","properties":{"name":null,"other_routes":[{"ref":"5","name":"Bus 5: Larvotto → Hôpital","colour":"#AA5500","osm_id":"-2218008"}]},"geometry":{"type":"Point","coordinates":[7.43039333952581,43.7421949828107]}},{"type":"Feature","properties":{"name":null,"other_routes":[{"ref":"1","name":"Bus 1: Monaco Ville (le Rocher) → Saint-Roman","colour":"Red","osm_id":"-2207095"},{"ref":"5","name":"Bus 5: Larvotto → Hôpital","colour":"#AA5500","osm_id":"-2218008"}]},"geometry":{"type":"Point","coordinates":[7.42964877506691,43.7404091345205]}},{"type":"Feature","properties":{"name":"Citronniers","other_routes":[{"ref":"1","name":"Bus 1: Monaco Ville (le Rocher) → Saint-Roman","colour":"Red","osm_id":"-2207095"},{"ref":"5","name":"Bus 5: Larvotto → Hôpital","colour":"#AA5500","osm_id":"-2218008"}]},"geometry":{"type":"Point","coordinates":[7.42863322367839,43.7410188341574]}},{"type":"Feature","properties":{"name":null,"other_routes":[{"ref":"1","name":"Bus 1: Monaco Ville (le Rocher) → Saint-Roman","colour":"Red","osm_id":"-2207095"},{"ref":"5","name":"Bus 5: Larvotto → Hôpital","colour":"#AA5500","osm_id":"-2218008"}]},"geometry":{"type":"Point","coordinates":[7.42753712220039,43.7399475431127]}},{"type":"Feature","properties":{"name":null,"other_routes":[{"ref":"1","name":"Bus 1: Saint-Roman → Monaco Ville (le Rocher)","colour":"Red","osm_id":"-2207100"},{"ref":"2","name":"Bus 2: Jardin Exotique → Monaco Ville (le Rocher)","colour":"DodgerBlue","osm_id":"-2211942"}]},"geometry":{"type":"Point","coordinates":[7.42517267113419,43.7397724451555]}},{"type":"Feature","properties":{"name":"Square Beaumarchais","other_routes":[{"ref":"1","name":"Bus 1: Saint-Roman → Monaco Ville (le Rocher)","colour":"Red","osm_id":"-2207100"},{"ref":"2","name":"Bus 2: Jardin Exotique → Monaco Ville (le Rocher)","colour":"DodgerBlue","osm_id":"-2211942"}]},"geometry":{"type":"Point","coordinates":[7.42617414092536,43.7387911757509]}},{"type":"Feature","properties":{"name":null,"other_routes":[{"ref":"2","name":"Bus 2: Jardin Exotique → Monaco Ville (le Rocher)","colour":"DodgerBlue","osm_id":"-2211942"}]},"geometry":{"type":"Point","coordinates":[7.42451653575375,43.7374124364979]}},{"type":"Feature","properties":{"name":null,"other_routes":[{"ref":"1","name":"Bus 1: Saint-Roman → Monaco Ville (le Rocher)","colour":"Red","osm_id":"-2207100"},{"ref":"2","name":"Bus 2: Jardin Exotique → Monaco Ville (le Rocher)","colour":"DodgerBlue","osm_id":"-2211942"},{"ref":"3","name":"Bus 3: Fontvieille - Centre Commercial → Hector Otto","colour":"DarkGray","osm_id":"-7358689"}]},"geometry":{"type":"Point","coordinates":[7.42107257937784,43.7367088595455]}},{"type":"Feature","properties":{"name":"Princesse Florestine","other_routes":[{"ref":"1","name":"Bus 1: Saint-Roman → Monaco Ville (le Rocher)","colour":"Red","osm_id":"-2207100"},{"ref":"2","name":"Bus 2: Jardin Exotique → Monaco Ville (le Rocher)","colour":"DodgerBlue","osm_id":"-2211942"},{"ref":"3","name":"Bus 3: Fontvieille - Centre Commercial → Hector Otto","colour":"DarkGray","osm_id":"-7358689"}]},"geometry":{"type":"Point","coordinates":[7.41979995501899,43.7356215590658]}},{"type":"Feature","properties":{"name":null,"other_routes":[{"ref":"1","name":"Bus 1: Monaco Ville (le Rocher) → Saint-Roman","colour":"Red","osm_id":"-2207095"},{"ref":"2","name":"Bus 2: Monaco Ville (le Rocher) → Jardin Exotique","colour":"DodgerBlue","osm_id":"-2211941"},{"ref":"3","name":"Bus 3: Hector Otto → Fontvieille - Centre Commercial","colour":"DarkGray","osm_id":"-7358688"}]},"geometry":{"type":"Point","coordinates":[7.42038274874665,43.7322343481744]}},{"type":"Feature","properties":{"name":null,"other_routes":[{"ref":"3","name":"Bus 3: Hector Otto → Fontvieille - Centre Commercial","colour":"DarkGray","osm_id":"-7358688"}]},"geometry":{"type":"Point","coordinates":[7.42283596416746,43.7323311591561]}},{"type":"Feature","properties":{"name":null,"other_routes":[{"ref":"3","name":"Bus 3: Fontvieille - Centre Commercial → Hector Otto","colour":"DarkGray","osm_id":"-7358689"},{"ref":"3","name":"Bus 3: Hector Otto → Fontvieille - Centre Commercial","colour":"DarkGray","osm_id":"-7358688"},{"ref":"4","name":"Bus 4: Fontvieille - Centre Commercial → Saint-Roman","colour":"#FFCC00","osm_id":"-2214022"},{"ref":"6","name":"Bus 6: Fontvieille - Centre Commercial → Larvotto","colour":"#88BB00","osm_id":"-2218010"}]},"geometry":{"type":"Point","coordinates":[7.41761496049972,43.7306074207685]}}]}
