{"type":"FeatureCollection","properties":{"osm_id":-2218009,"ref":"5","colour":"#AA5500"},"features":[{"type":"Feature","properties":{"name":null,"other_routes":[{"ref":"3","name":"Bus 3: Fontvieille - Centre Commercial → Hector Otto","colour":"DarkGray","osm_id":"-7358689"},{"ref":"5","name":"Bus 5: Larvotto → Hôpital","colour":"#AA5500","osm_id":"-2218008"}]},"geometry":{"type":"Point","coordinates":[7.41286577416162,43.7307504998556]}},{"type":"Feature","properties":{"name":null,"other_routes":[{"ref":"3","name":"Bus 3: Fontvieille - Centre Commercial → Hector Otto","colour":"DarkGray","osm_id":"-7358689"}]},"geometry":{"type":"Point","coordinates":[7.41459906791886,43.7317672247106]}},{"type":"Feature","properties":{"name":null,"other_routes":[{"ref":"3","name":"Bus 3: Fontvieille - Centre Commercial → Hector Otto","colour":"DarkGray","osm_id":"-7358689"},{"ref":"3","name":"Bus 3: Hector Otto → Fontvieille - Centre Commercial","colour":"DarkGray","osm_id":"-7358688"},{"ref":"5","name":"Bus 5: Larvotto → Hôpital","colour":"#AA5500","osm_id":"-2218008"}]},"geometry":{"type":"Point","coordinates":[7.41552283746762,43.7334874426989]}},{"type":"Feature","properties":{"name":null,"other_routes":[{"ref":"3","name":"Bus 3: Fontvieille - Centre Commercial → Hector Otto","colour":"DarkGray","osm_id":"-7358689"}]},"geometry":{"type":"Point","coordinates":[7.41662874577233,43.7356186253998]}},{"type":"Feature","properties":{"name":null,"other_routes":[{"ref":"3","name":"Bus 3: Fontvieille - Centre Commercial → Hector Otto","colour":"DarkGray","osm_id":"-7358689"}]},"geometry":{"type":"Point","coordinates":[7.41879563538075,43.7369320696271]}},{"type":"Feature","properties":{"name":null,"other_routes":[{"ref":"2","name":"Bus 2: Jardin Exotique → Monaco Ville (le Rocher)","colour":"DodgerBlue","osm_id":"-2211942"},{"ref":"4","name":"Bus 4: Fontvieille - Centre Commercial → Saint-Roman","colour":"#FFCC00","osm_id":"-2214022"}]},"geometry":{"type":"Point","coordinates":[7.41987849345173,43.738801988406]}},{"type":"Feature","properties":{"name":null,"other_routes":[{"ref":"2","name":"Bus 2: Jardin Exotique → Monaco Ville (le Rocher)","colour":"DodgerBlue","osm_id":"-2211942"},{"ref":"4","name":"Bus 4: Fontvieille - Centre Commercial → Saint-Roman","colour":"#FFCC00","osm_id":"-2214022"}]},"geometry":{"type":"Point","coordinates":[7.42313586866303,43.7396546794159]}},{"type":"Feature","properties":{"name":null,"other_routes":[{"ref":"1","name":"Bus 1: Monaco Ville (le Rocher) → Saint-Roman","colour":"Red","osm_id":"-2207095"},{"ref":"2","name":"Bus 2: Monaco Ville (le Rocher) → Jardin Exotique","colour":"DodgerBlue","osm_id":"-2211941"},{"ref":"4","name":"Bus 4: Fontvieille - Centre Commercial → Saint-Roman","colour":"#FFCC00","osm_id":"-2214022"},{"ref":"5","name":"Bus 5: Larvotto → Hôpital","colour":"#AA5500","osm_id":"-2218008"},{"ref":"6","name":"Bus 6: Fontvieille - Centre Commercial → Larvotto","colour":"#88BB00","osm_id":"-2218010"}]},"geometry":{"type":"Point","coordinates":[7.4259410401981,43.7409470850662]}},{"type":"Feature","properties":{"name":"Place du Casino","other_routes":[{"ref":"6","name":"Bus 6: Fontvieille - Centre Commercial → Larvotto","colour":"#88BB00","osm_id":"-2218010"}]},"geometry":{"type":"Point","coordinates":[7.42788949740981,43.7402881836577]}},{"type":"Feature","properties":{"name":null,"other_routes":[{"ref":"6","name":"Bus 6: Fontvieille - Centre Commercial → Larvotto","colour":"#88BB00","osm_id":"-2218010"}]},"geometry":{"type":"Point","coordinates":[7.42941123193097,43.740611054568]}},{"type":"Feature","properties":{"name":null,"other_routes":[{"ref":"1","name":"Bus 1: Monaco Ville (le Rocher) → Saint-Roman","colour":"Red","osm_id":"-2207095"},{"ref":"6","name":"Bus 6: Fontvieille - Centre Commercial → Larvotto","colour":"#88BB00","osm_id":"-2218010"}]},"geometry":{"type":"Point","coordinates":[7.43048512136556,43.7415687708246]}},{"type":"Feature","properties":{"name":"Grimaldi Forum/Villa Sauber","other_routes":[{"ref":"6","name":"Bus 6: Fontvieille - Centre Commercial → Larvotto","colour":"#88BB00","osm_id":"-2218010"}]},"geometry":{"type":"Point","coordinates":[7.43122742271061,43.7440153645419]}},{"type":"Feature","properties":{"name":"Plages","other_routes":[{"ref":"6","name":"Bus 6: Fontvieille - Centre Commercial → Larvotto","colour":"#88BB00","osm_id":"-2218010"}]},"geometry":{"type":"Point","coordinates":[7.43370427509836,43.7468948835581]}},{"type":"Feature","properties":{"name":null,"other_routes":[{"ref":"6","name":"Bus 6: Fontvieille - Centre Commercial → Larvotto","colour":"#88BB00","osm_id":"-2218010"}]},"geometry":{"type":"Point","coordinates":[7.43531938402089,43.748238921732]}},{"type":"Feature","properties":{"name":null,"other_routes":[{"ref":"5","name":"Bus 5: Larvotto → Hôpital","colour":"#AA5500","osm_id":"-2218008"},{"ref":"6","name":"Bus 6: Fontvieille - Centre Commercial → Larvotto","colour":"#88BB00","osm_id":"-2218010"},{"ref":"6","name":"Bus 6: Larvotto → Fontvieille - Centre Commercial","colour":"#88BB00","osm_id":"-2218011"}]},"geometry":{"type":"Point","coordinates":[7.43739071993312,43.749234691829]}}]}
